{
"type": "FeatureCollection",
"name": "conflicts",
"crs": { "type": "name", "properties": { "name": "urn:ogc:def:crs:OGC:1.3:CRS84" } },
"features": [
{ "type": "Feature", "properties": { "NAME": "Barnet", "LONGITUDE": -0.199606, "LATITUDE": 51.652929, "CONFLICT": "War of the Roses", "YEARS": 1471, "STRYEAR": 1471, "ENDYEAR": 1471, "STDATE": "-15746918400000", "ENDATE": "-15715468800000", "DATEX": "12/31/1471", "SOURCE": "Oman p169, Eggenberger p45, Hooper p144", "TEXT": " ", "OBJECTID": 1 }, "geometry": { "type": "Point", "coordinates": [ -0.19961, 51.65293 ] } },
{ "type": "Feature", "properties": { "NAME": "Blore Heath", "LONGITUDE": -0.315106, "LATITUDE": 51.719171, "CONFLICT": "War of the Roses", "YEARS": 1459, "STRYEAR": 1459, "ENDYEAR": 1459, "STDATE": "-16125609600000", "ENDATE": "-16094160000000", "DATEX": "12/31/1459", "SOURCE": "Oman p169, Eggenberger p55", "TEXT": "Staffordshire", "OBJECTID": 2 }, "geometry": { "type": "Point", "coordinates": [ -0.31511, 51.71917 ] } },
{ "type": "Feature", "properties": { "NAME": "Bosworth", "LONGITUDE": -1.401694, "LATITUDE": 52.624293, "CONFLICT": "War of the Roses", "YEARS": 0, "STRYEAR": 1485, "ENDYEAR": 1487, "STDATE": "-15305068800000", "ENDATE": "-15210547200000", "DATEX": "12/31/1487", "SOURCE": "Holmes p52", "TEXT": " ", "OBJECTID": 3 }, "geometry": { "type": "Point", "coordinates": [ -1.40169, 52.62429 ] } },
{ "type": "Feature", "properties": { "NAME": "Bramham Moor", "LONGITUDE": -1.355468, "LATITUDE": 53.881254, "CONFLICT": "War of the Roses", "YEARS": 1487, "STRYEAR": 1487, "ENDYEAR": 1487, "STDATE": "-15241996800000", "ENDATE": "-15210547200000", "DATEX": "12/31/1487", "SOURCE": "Hooper p144, Eggenberger p59", "TEXT": "Moor is along south coast. Eggenberger: Yorkshire. InfoBrit: near Tadcaster.", "OBJECTID": 4 }, "geometry": { "type": "Point", "coordinates": [ -1.35547, 53.88125 ] } },
{ "type": "Feature", "properties": { "NAME": "Brunkeberg", "LONGITUDE": 8.48687, "LATITUDE": 59.437827, "CONFLICT": "Danish-Swedish Wars", "YEARS": 1471, "STRYEAR": 1471, "ENDYEAR": 1471, "STDATE": "-15746918400000", "ENDATE": "-15715468800000", "DATEX": "12/31/1471", "SOURCE": "Eggenberg p63, Hooper p185", "TEXT": " ", "OBJECTID": 5 }, "geometry": { "type": "Point", "coordinates": [ 8.48687, 59.43783 ] } },
{ "type": "Feature", "properties": { "NAME": "Castillon", "LONGITUDE": -0.040655, "LATITUDE": 44.855689, "CONFLICT": "Hundred Years' War", "YEARS": 1453, "STRYEAR": 1453, "ENDYEAR": 1453, "STDATE": "-16314912000000", "ENDATE": "-16283462400000", "DATEX": "12/31/1453", "SOURCE": "Oman p169, Eggenberger p80", "TEXT": " ", "OBJECTID": 6 }, "geometry": { "type": "Point", "coordinates": [ -0.04066, 44.85569 ] } },
{ "type": "Feature", "properties": { "NAME": "Dornach", "LONGITUDE": 7.615767, "LATITUDE": 47.482128, "CONFLICT": "Swiss-Swabian War", "YEARS": 1499, "STRYEAR": 1499, "ENDYEAR": 1499, "STDATE": "-14863305600000", "ENDATE": "-14831856000000", "DATEX": "12/31/1499", "SOURCE": "Oman p169, Eggenberger p123", "TEXT": " ", "OBJECTID": 7 }, "geometry": { "type": "Point", "coordinates": [ 7.61577, 47.48213 ] } },
{ "type": "Feature", "properties": { "NAME": "Dunstable", "LONGITUDE": -0.523129, "LATITUDE": 51.887615, "CONFLICT": "War of the Roses", "YEARS": 1461, "STRYEAR": 1461, "ENDYEAR": 1461, "STDATE": "-16062451200000", "ENDATE": "-16031001600000", "DATEX": "12/31/1461", "SOURCE": "Hooper p142", "TEXT": " ", "OBJECTID": 8 }, "geometry": { "type": "Point", "coordinates": [ -0.52313, 51.88762 ] } },
{ "type": "Feature", "properties": { "NAME": "Edgecote", "LONGITUDE": -0.789443, "LATITUDE": 52.033483, "CONFLICT": "War of the Roses", "YEARS": 1469, "STRYEAR": 1469, "ENDYEAR": 1469, "STDATE": "-15809990400000", "ENDATE": "-15778540800000", "DATEX": "12/31/1469", "SOURCE": "Hooper p144", "TEXT": " ", "OBJECTID": 9 }, "geometry": { "type": "Point", "coordinates": [ -0.78944, 52.03348 ] } },
{ "type": "Feature", "properties": { "NAME": "Empingham", "LONGITUDE": -0.592305, "LATITUDE": 52.668264, "CONFLICT": "War of the Roses", "YEARS": 1470, "STRYEAR": 1470, "ENDYEAR": 1470, "STDATE": "-15778454400000", "ENDATE": "-15747004800000", "DATEX": "12/31/1470", "SOURCE": "Hooper p144, Eggenberger p247", "TEXT": "Lose-coat Field", "OBJECTID": 10 }, "geometry": { "type": "Point", "coordinates": [ -0.5923, 52.66826 ] } },
{ "type": "Feature", "properties": { "NAME": "Ferrybridge", "LONGITUDE": -1.273409, "LATITUDE": 53.712049, "CONFLICT": "War of the Roses", "YEARS": 1461, "STRYEAR": 1461, "ENDYEAR": 1461, "STDATE": "-16062451200000", "ENDATE": "-16031001600000", "DATEX": "12/31/1461", "SOURCE": "Hooper p142, Eggenberger p141", "TEXT": " ", "OBJECTID": 11 }, "geometry": { "type": "Point", "coordinates": [ -1.27341, 53.71205 ] } },
{ "type": "Feature", "properties": { "NAME": "Formigny", "LONGITUDE": -0.899171, "LATITUDE": 49.336395, "CONFLICT": "Hundred Years' War", "YEARS": 1450, "STRYEAR": 1450, "ENDYEAR": 1450, "STDATE": "-16409606400000", "ENDATE": "-16378156800000", "DATEX": "12/31/1450", "SOURCE": "Oman p169, Eggenberger p146", "TEXT": " ", "OBJECTID": 12 }, "geometry": { "type": "Point", "coordinates": [ -0.89917, 49.33639 ] } },
{ "type": "Feature", "properties": { "NAME": "Frastenz", "LONGITUDE": 9.63061, "LATITUDE": 47.216928, "CONFLICT": "Swiss-Swabian War", "YEARS": 1499, "STRYEAR": 1499, "ENDYEAR": 1499, "STDATE": "-14863305600000", "ENDATE": "-14831856000000", "DATEX": "12/31/1499", "SOURCE": "Oman p169, Eggenberger p156", "TEXT": " ", "OBJECTID": 13 }, "geometry": { "type": "Point", "coordinates": [ 9.63061, 47.21693 ] } },
{ "type": "Feature", "properties": { "NAME": "Granada", "LONGITUDE": -3.597929, "LATITUDE": 37.176487, "CONFLICT": "Spanish-Muslim Wars", "YEARS": 0, "STRYEAR": 1491, "ENDYEAR": 1492, "STDATE": "-15115766400000", "ENDATE": "-15052694400000", "DATEX": "12/31/1492", "SOURCE": "Hooper p 185, Eggenberger p174", "TEXT": " ", "OBJECTID": 14 }, "geometry": { "type": "Point", "coordinates": [ -3.59793, 37.17649 ] } },
{ "type": "Feature", "properties": { "NAME": "Grandson", "LONGITUDE": 6.645955, "LATITUDE": 46.809372, "CONFLICT": "Swiss-Burgundian War", "YEARS": 1476, "STRYEAR": 1476, "ENDYEAR": 1476, "STDATE": "-15589152000000", "ENDATE": "-15557616000000", "DATEX": "12/31/1476", "SOURCE": "Oman p169, Eggenberger p175. Hooper  p185", "TEXT": " ", "OBJECTID": 15 }, "geometry": { "type": "Point", "coordinates": [ 6.64596, 46.80937 ] } },
{ "type": "Feature", "properties": { "NAME": "Guinegate", "LONGITUDE": 2.271314, "LATITUDE": 50.60721, "CONFLICT": "Maximilian Habsburg deafeats Louis IX of France", "YEARS": 1479, "STRYEAR": 1479, "ENDYEAR": 1479, "STDATE": "-15494457600000", "ENDATE": "-15463008000000", "DATEX": "12/31/1479", "SOURCE": "Hooper p 185", "TEXT": "French: Enguinegatte", "OBJECTID": 16 }, "geometry": { "type": "Point", "coordinates": [ 2.27131, 50.60721 ] } },
{ "type": "Feature", "properties": { "NAME": "Hedgeley Moor", "LONGITUDE": -1.84504, "LATITUDE": 55.440996, "CONFLICT": "War of the Roses", "YEARS": 1464, "STRYEAR": 1464, "ENDYEAR": 1464, "STDATE": "-15967843200000", "ENDATE": "-15936307200000", "DATEX": "12/31/1464", "SOURCE": "Oman p169, Eggenberger p189", "TEXT": " ", "OBJECTID": 17 }, "geometry": { "type": "Point", "coordinates": [ -1.84504, 55.441 ] } },
{ "type": "Feature", "properties": { "NAME": "Hexham", "LONGITUDE": -2.097919, "LATITUDE": 54.970216, "CONFLICT": "War of the Roses", "YEARS": 1464, "STRYEAR": 1464, "ENDYEAR": 1464, "STDATE": "-15967843200000", "ENDATE": "-15936307200000", "DATEX": "12/31/1464", "SOURCE": "Hooper p142, Eggenberger p191", "TEXT": " ", "OBJECTID": 18 }, "geometry": { "type": "Point", "coordinates": [ -2.09792, 54.97022 ] } },
{ "type": "Feature", "properties": { "NAME": "Liège", "LONGITUDE": 5.572047, "LATITUDE": 50.640649, "CONFLICT": "Swiss-Burgundian War", "YEARS": 0, "STRYEAR": 1467, "ENDYEAR": 1471, "STDATE": "-15873148800000", "ENDATE": "-15715468800000", "DATEX": "12/31/1471", "SOURCE": "Nicholson p.xx, Hooper p149", "TEXT": " ", "OBJECTID": 19 }, "geometry": { "type": "Point", "coordinates": [ 5.57205, 50.64065 ] } },
{ "type": "Feature", "properties": { "NAME": "Mainz", "LONGITUDE": 8.267675, "LATITUDE": 49.995728, "CONFLICT": "strike by Archbishop Adolf of Nassau", "YEARS": 1462, "STRYEAR": 1462, "ENDYEAR": 1462, "STDATE": "-16030915200000", "ENDATE": "-15999465600000", "DATEX": "12/31/1462", "SOURCE": "Dobras p27", "TEXT": "October 28, 1462", "OBJECTID": 20 }, "geometry": { "type": "Point", "coordinates": [ 8.26767, 49.99573 ] } },
{ "type": "Feature", "properties": { "NAME": "Montlhéry", "LONGITUDE": 2.270938, "LATITUDE": 48.639708, "CONFLICT": "French-Burgundian War", "YEARS": 1465, "STRYEAR": 1465, "ENDYEAR": 1465, "STDATE": "-15936220800000", "ENDATE": "-15904771200000", "DATEX": "12/31/1465", "SOURCE": "Hooper p149, Eggenberger p285", "TEXT": " ", "OBJECTID": 21 }, "geometry": { "type": "Point", "coordinates": [ 2.27094, 48.63971 ] } },
{ "type": "Feature", "properties": { "NAME": "Morat (Murten)", "LONGITUDE": 7.117695, "LATITUDE": 46.928652, "CONFLICT": "Swiss-Burgundian War", "YEARS": 1476, "STRYEAR": 1476, "ENDYEAR": 1476, "STDATE": "-15589152000000", "ENDATE": "-15557616000000", "DATEX": "12/31/1476", "SOURCE": "Oman p169, Eggenberger p286, Hooper p185", "TEXT": "German: Murten", "OBJECTID": 22 }, "geometry": { "type": "Point", "coordinates": [ 7.11769, 46.92865 ] } },
{ "type": "Feature", "properties": { "NAME": "Mortimer's Cross", "LONGITUDE": -2.843454, "LATITUDE": 52.268858, "CONFLICT": "War of the Roses", "YEARS": 1461, "STRYEAR": 1461, "ENDYEAR": 1461, "STDATE": "-16062451200000", "ENDATE": "-16031001600000", "DATEX": "12/31/1461", "SOURCE": "Hooper p142, Eggenberger p286", "TEXT": "near Wigmore", "OBJECTID": 23 }, "geometry": { "type": "Point", "coordinates": [ -2.84345, 52.26886 ] } },
{ "type": "Feature", "properties": { "NAME": "Nancy", "LONGITUDE": 6.180327, "LATITUDE": 48.688175, "CONFLICT": "Swiss-Burgundian War", "YEARS": 1477, "STRYEAR": 1477, "ENDYEAR": 1477, "STDATE": "-15557529600000", "ENDATE": "-15526080000000", "DATEX": "12/31/1477", "SOURCE": "Oman p169, Eggenberger p294", "TEXT": " ", "OBJECTID": 24 }, "geometry": { "type": "Point", "coordinates": [ 6.18033, 48.68817 ] } },
{ "type": "Feature", "properties": { "NAME": "Neuss", "LONGITUDE": 6.69529, "LATITUDE": 51.198429, "CONFLICT": "Burgundian Wars", "YEARS": 0, "STRYEAR": 1474, "ENDYEAR": 1475, "STDATE": "-15652224000000", "ENDATE": "-15589238400000", "DATEX": "12/31/1475", "SOURCE": "Nicholson p.xx, Hooper p149", "TEXT": " ", "OBJECTID": 25 }, "geometry": { "type": "Point", "coordinates": [ 6.69529, 51.19843 ] } },
{ "type": "Feature", "properties": { "NAME": "Northampton", "LONGITUDE": -0.897391, "LATITUDE": 52.236874, "CONFLICT": "War of the Roses", "YEARS": 1460, "STRYEAR": 1460, "ENDYEAR": 1460, "STDATE": "-16094073600000", "ENDATE": "-16062537600000", "DATEX": "12/31/1460", "SOURCE": "Holmes p52, Oman p169, Eggenberger p310", "TEXT": " ", "OBJECTID": 26 }, "geometry": { "type": "Point", "coordinates": [ -0.89739, 52.23687 ] } },
{ "type": "Feature", "properties": { "NAME": "St. Albans", "LONGITUDE": -0.333892, "LATITUDE": 51.75153, "CONFLICT": "War of the Roses", "YEARS": 0, "STRYEAR": 1455, "ENDYEAR": 1461, "STDATE": "-16251840000000", "ENDATE": "-16031001600000", "DATEX": "12/31/1461", "SOURCE": "Holmes p52, Oman p169, Eggenberger p375", "TEXT": " ", "OBJECTID": 27 }, "geometry": { "type": "Point", "coordinates": [ -0.33389, 51.75153 ] } },
{ "type": "Feature", "properties": { "NAME": "Tewkesbury", "LONGITUDE": -2.151458, "LATITUDE": 51.993784, "CONFLICT": "War of the Roses", "YEARS": 1471, "STRYEAR": 1471, "ENDYEAR": 1471, "STDATE": "-15746918400000", "ENDATE": "-15715468800000", "DATEX": "12/31/1471", "SOURCE": "Oman p169, Eggenberger p431", "TEXT": " ", "OBJECTID": 28 }, "geometry": { "type": "Point", "coordinates": [ -2.15146, 51.99378 ] } },
{ "type": "Feature", "properties": { "NAME": "Towton", "LONGITUDE": -1.26377, "LATITUDE": 53.850742, "CONFLICT": "War of the Roses", "YEARS": 1461, "STRYEAR": 1461, "ENDYEAR": 1461, "STDATE": "-16062451200000", "ENDATE": "-16031001600000", "DATEX": "12/31/1461", "SOURCE": "Holmes p52, Oman p169, Eggenberger p442", "TEXT": " ", "OBJECTID": 29 }, "geometry": { "type": "Point", "coordinates": [ -1.26377, 53.85074 ] } },
{ "type": "Feature", "properties": { "NAME": "Wakefield", "LONGITUDE": -1.499097, "LATITUDE": 53.682973, "CONFLICT": "War of the Roses", "YEARS": 1460, "STRYEAR": 1460, "ENDYEAR": 1460, "STDATE": "-16094073600000", "ENDATE": "-16062537600000", "DATEX": "12/31/1460", "SOURCE": "Holmes p52", "TEXT": " ", "OBJECTID": 30 }, "geometry": { "type": "Point", "coordinates": [ -1.4991, 53.68297 ] } },
{ "type": "Feature", "properties": { "NAME": "Waldshut", "LONGITUDE": 8.216843, "LATITUDE": 47.628609, "CONFLICT": "Seige of Waldshut", "YEARS": 1468, "STRYEAR": 1468, "ENDYEAR": 1468, "STDATE": "-15841612800000", "ENDATE": "-15810076800000", "DATEX": "12/31/1468", "SOURCE": "Oman p169", "TEXT": " ", "OBJECTID": 31 }, "geometry": { "type": "Point", "coordinates": [ 8.21684, 47.62861 ] } }
]
}
