{
"type": "FeatureCollection",
"name": "fairs",
"crs": { "type": "name", "properties": { "name": "urn:ogc:def:crs:OGC:1.3:CRS84" } },
"features": [
{ "type": "Feature", "properties": { "PLACE": "Abbeville", "LONGITUDE": 1.827798, "LATITUDE": 50.109721, "YEAR": 0, "TEXT": " ", "OBJECTID": 1 }, "geometry": { "type": "Point", "coordinates": [ 1.8278, 50.10972 ] } },
{ "type": "Feature", "properties": { "PLACE": "Aigues-Mortes", "LONGITUDE": 4.199922, "LATITUDE": 43.56492, "YEAR": 0, "TEXT": " ", "OBJECTID": 2 }, "geometry": { "type": "Point", "coordinates": [ 4.19992, 43.56492 ] } },
{ "type": "Feature", "properties": { "PLACE": "Alcaraz", "LONGITUDE": -2.490618, "LATITUDE": 38.667092, "YEAR": 0, "TEXT": " ", "OBJECTID": 3 }, "geometry": { "type": "Point", "coordinates": [ -2.49062, 38.66709 ] } },
{ "type": "Feature", "properties": { "PLACE": "Ancona", "LONGITUDE": 13.518944, "LATITUDE": 53.615828, "YEAR": 0, "TEXT": " ", "OBJECTID": 4 }, "geometry": { "type": "Point", "coordinates": [ 13.51894, 53.61583 ] } },
{ "type": "Feature", "properties": { "PLACE": "Angers", "LONGITUDE": -0.5333, "LATITUDE": 47.4833, "YEAR": 0, "TEXT": " ", "OBJECTID": 5 }, "geometry": { "type": "Point", "coordinates": [ -0.5333, 47.4833 ] } },
{ "type": "Feature", "properties": { "PLACE": "Angoulême", "LONGITUDE": 0.160924, "LATITUDE": 45.64834, "YEAR": 0, "TEXT": " ", "OBJECTID": 6 }, "geometry": { "type": "Point", "coordinates": [ 0.16092, 45.64834 ] } },
{ "type": "Feature", "properties": { "PLACE": "Antwerp", "LONGITUDE": 4.399722, "LATITUDE": 51.22058, "YEAR": 0, "TEXT": "c. 1350 - 16th C", "OBJECTID": 7 }, "geometry": { "type": "Point", "coordinates": [ 4.39972, 51.22058 ] } },
{ "type": "Feature", "properties": { "PLACE": "Aurillac", "LONGITUDE": 2.443643, "LATITUDE": 44.927761, "YEAR": 0, "TEXT": " ", "OBJECTID": 8 }, "geometry": { "type": "Point", "coordinates": [ 2.44364, 44.92776 ] } },
{ "type": "Feature", "properties": { "PLACE": "Avranches", "LONGITUDE": -1.355102, "LATITUDE": 48.68376, "YEAR": 0, "TEXT": " ", "OBJECTID": 9 }, "geometry": { "type": "Point", "coordinates": [ -1.3551, 48.68376 ] } },
{ "type": "Feature", "properties": { "PLACE": "Badajoz", "LONGITUDE": -6.970283, "LATITUDE": 38.878596, "YEAR": 0, "TEXT": " ", "OBJECTID": 10 }, "geometry": { "type": "Point", "coordinates": [ -6.97028, 38.8786 ] } },
{ "type": "Feature", "properties": { "PLACE": "Bar-sur-Aube", "LONGITUDE": 4.704613, "LATITUDE": 48.234801, "YEAR": 0, "TEXT": "c. 1114 - 1789, part of the Champagne cycle of fairs", "OBJECTID": 11 }, "geometry": { "type": "Point", "coordinates": [ 4.70461, 48.2348 ] } },
{ "type": "Feature", "properties": { "PLACE": "Bar-sur-Seine", "LONGITUDE": 4.375096, "LATITUDE": 48.114789, "YEAR": 0, "TEXT": " ", "OBJECTID": 12 }, "geometry": { "type": "Point", "coordinates": [ 4.3751, 48.11479 ] } },
{ "type": "Feature", "properties": { "PLACE": "Beaucaire", "LONGITUDE": 4.635468, "LATITUDE": 43.811351, "YEAR": 0, "TEXT": "16th C", "OBJECTID": 13 }, "geometry": { "type": "Point", "coordinates": [ 4.63547, 43.81135 ] } },
{ "type": "Feature", "properties": { "PLACE": "Beauvais", "LONGITUDE": 2.08614, "LATITUDE": 49.426762, "YEAR": 0, "TEXT": "1360 -", "OBJECTID": 14 }, "geometry": { "type": "Point", "coordinates": [ 2.08614, 49.42676 ] } },
{ "type": "Feature", "properties": { "PLACE": "Bergen-op-Zoom", "LONGITUDE": 4.287843, "LATITUDE": 51.494103, "YEAR": 0, "TEXT": "c. 1350 - 16th C", "OBJECTID": 15 }, "geometry": { "type": "Point", "coordinates": [ 4.28784, 51.4941 ] } },
{ "type": "Feature", "properties": { "PLACE": "Bologna", "LONGITUDE": 11.343191, "LATITUDE": 44.475421, "YEAR": 0, "TEXT": " ", "OBJECTID": 16 }, "geometry": { "type": "Point", "coordinates": [ 11.34319, 44.47542 ] } },
{ "type": "Feature", "properties": { "PLACE": "Bolzano", "LONGITUDE": 11.354103, "LATITUDE": 46.495166, "YEAR": 0, "TEXT": "c. 13th C - 15th C", "OBJECTID": 17 }, "geometry": { "type": "Point", "coordinates": [ 11.3541, 46.49517 ] } },
{ "type": "Feature", "properties": { "PLACE": "Bordeaux", "LONGITUDE": 0.57833, "LATITUDE": 40.921944, "YEAR": 0, "TEXT": "peak at 16th c", "OBJECTID": 18 }, "geometry": { "type": "Point", "coordinates": [ 0.57833, 40.92194 ] } },
{ "type": "Feature", "properties": { "PLACE": "Borgo San Donnino", "LONGITUDE": 10.061731, "LATITUDE": 44.865102, "YEAR": 0, "TEXT": "Currently Fidenza", "OBJECTID": 19 }, "geometry": { "type": "Point", "coordinates": [ 10.06173, 44.8651 ] } },
{ "type": "Feature", "properties": { "PLACE": "Boston", "LONGITUDE": -0.024067, "LATITUDE": 52.977445, "YEAR": 0, "TEXT": "c. 11th C", "OBJECTID": 20 }, "geometry": { "type": "Point", "coordinates": [ -0.02407, 52.97745 ] } },
{ "type": "Feature", "properties": { "PLACE": "Boulogne", "LONGITUDE": 1.614469, "LATITUDE": 50.726188, "YEAR": 0, "TEXT": " ", "OBJECTID": 21 }, "geometry": { "type": "Point", "coordinates": [ 1.61447, 50.72619 ] } },
{ "type": "Feature", "properties": { "PLACE": "Bruges", "LONGITUDE": 3.22523, "LATITUDE": 51.20941, "YEAR": 0, "TEXT": "c. 13th C - 16th C", "OBJECTID": 22 }, "geometry": { "type": "Point", "coordinates": [ 3.22523, 51.20941 ] } },
{ "type": "Feature", "properties": { "PLACE": "Bury St. Edmunds", "LONGITUDE": 0.706852, "LATITUDE": 52.247732, "YEAR": 0, "TEXT": "1142 - 1457", "OBJECTID": 23 }, "geometry": { "type": "Point", "coordinates": [ 0.70685, 52.24773 ] } },
{ "type": "Feature", "properties": { "PLACE": "Cáceres", "LONGITUDE": -6.37076, "LATITUDE": 39.476178, "YEAR": 0, "TEXT": " ", "OBJECTID": 24 }, "geometry": { "type": "Point", "coordinates": [ -6.37076, 39.47618 ] } },
{ "type": "Feature", "properties": { "PLACE": "Caen", "LONGITUDE": -0.364576, "LATITUDE": 49.184195, "YEAR": 0, "TEXT": " ", "OBJECTID": 25 }, "geometry": { "type": "Point", "coordinates": [ -0.36458, 49.1842 ] } },
{ "type": "Feature", "properties": { "PLACE": "Calais", "LONGITUDE": 1.852143, "LATITUDE": 50.957862, "YEAR": 0, "TEXT": " ", "OBJECTID": 26 }, "geometry": { "type": "Point", "coordinates": [ 1.85214, 50.95786 ] } },
{ "type": "Feature", "properties": { "PLACE": "Carcassonne", "LONGITUDE": 2.356099, "LATITUDE": 43.212605, "YEAR": 0, "TEXT": " ", "OBJECTID": 27 }, "geometry": { "type": "Point", "coordinates": [ 2.3561, 43.2126 ] } },
{ "type": "Feature", "properties": { "PLACE": "Carentan", "LONGITUDE": -1.24507, "LATITUDE": 49.306588, "YEAR": 0, "TEXT": " ", "OBJECTID": 28 }, "geometry": { "type": "Point", "coordinates": [ -1.24507, 49.30659 ] } },
{ "type": "Feature", "properties": { "PLACE": "Chalon-sur-Saône", "LONGITUDE": 4.852948, "LATITUDE": 46.784218, "YEAR": 0, "TEXT": "12th C", "OBJECTID": 29 }, "geometry": { "type": "Point", "coordinates": [ 4.85295, 46.78422 ] } },
{ "type": "Feature", "properties": { "PLACE": "Châlons-sur-Marne", "LONGITUDE": 4.363852, "LATITUDE": 48.963291, "YEAR": 0, "TEXT": " ", "OBJECTID": 30 }, "geometry": { "type": "Point", "coordinates": [ 4.36385, 48.96329 ] } },
{ "type": "Feature", "properties": { "PLACE": "Château-Thierry", "LONGITUDE": 3.398528, "LATITUDE": 49.047036, "YEAR": 0, "TEXT": " ", "OBJECTID": 31 }, "geometry": { "type": "Point", "coordinates": [ 3.39853, 49.04704 ] } },
{ "type": "Feature", "properties": { "PLACE": "Cherbourg", "LONGITUDE": -1.61424, "LATITUDE": 49.638668, "YEAR": 0, "TEXT": " ", "OBJECTID": 32 }, "geometry": { "type": "Point", "coordinates": [ -1.61424, 49.63867 ] } },
{ "type": "Feature", "properties": { "PLACE": "Chinon", "LONGITUDE": 0.238081, "LATITUDE": 47.166082, "YEAR": 0, "TEXT": " ", "OBJECTID": 33 }, "geometry": { "type": "Point", "coordinates": [ 0.23808, 47.16608 ] } },
{ "type": "Feature", "properties": { "PLACE": "Córdoba", "LONGITUDE": -4.776833, "LATITUDE": 37.886383, "YEAR": 0, "TEXT": " ", "OBJECTID": 34 }, "geometry": { "type": "Point", "coordinates": [ -4.77683, 37.88638 ] } },
{ "type": "Feature", "properties": { "PLACE": "Cuenca", "LONGITUDE": -2.134005, "LATITUDE": 40.071835, "YEAR": 0, "TEXT": " ", "OBJECTID": 35 }, "geometry": { "type": "Point", "coordinates": [ -2.134, 40.07183 ] } },
{ "type": "Feature", "properties": { "PLACE": "Delft", "LONGITUDE": 4.360256, "LATITUDE": 52.011899, "YEAR": 0, "TEXT": "13th C", "OBJECTID": 36 }, "geometry": { "type": "Point", "coordinates": [ 4.36026, 52.0119 ] } },
{ "type": "Feature", "properties": { "PLACE": "Deventer", "LONGITUDE": 6.160247, "LATITUDE": 52.25446, "YEAR": 0, "TEXT": "14th C", "OBJECTID": 37 }, "geometry": { "type": "Point", "coordinates": [ 6.16025, 52.25446 ] } },
{ "type": "Feature", "properties": { "PLACE": "Douai", "LONGITUDE": 3.082494, "LATITUDE": 50.367536, "YEAR": 0, "TEXT": "11th C", "OBJECTID": 38 }, "geometry": { "type": "Point", "coordinates": [ 3.08249, 50.36754 ] } },
{ "type": "Feature", "properties": { "PLACE": "Dreux", "LONGITUDE": 1.361131, "LATITUDE": 48.738252, "YEAR": 0, "TEXT": " ", "OBJECTID": 39 }, "geometry": { "type": "Point", "coordinates": [ 1.36113, 48.73825 ] } },
{ "type": "Feature", "properties": { "PLACE": "Ervy", "LONGITUDE": 3.911879, "LATITUDE": 48.040515, "YEAR": 0, "TEXT": " ", "OBJECTID": 40 }, "geometry": { "type": "Point", "coordinates": [ 3.91188, 48.04052 ] } },
{ "type": "Feature", "properties": { "PLACE": "Étampes", "LONGITUDE": 2.163217, "LATITUDE": 48.437114, "YEAR": 0, "TEXT": " ", "OBJECTID": 41 }, "geometry": { "type": "Point", "coordinates": [ 2.16322, 48.43711 ] } },
{ "type": "Feature", "properties": { "PLACE": "Falsterbo", "LONGITUDE": 12.837674, "LATITUDE": 55.393719, "YEAR": 0, "TEXT": "c. 1300 - 1545, part of Scania Peninsula herring fairs", "OBJECTID": 42 }, "geometry": { "type": "Point", "coordinates": [ 12.83767, 55.39372 ] } },
{ "type": "Feature", "properties": { "PLACE": "Farfa", "LONGITUDE": 12.719222, "LATITUDE": 42.222874, "YEAR": 0, "TEXT": " ", "OBJECTID": 43 }, "geometry": { "type": "Point", "coordinates": [ 12.71922, 42.22287 ] } },
{ "type": "Feature", "properties": { "PLACE": "Ferrara", "LONGITUDE": 11.6333, "LATITUDE": 44.833, "YEAR": 0, "TEXT": " ", "OBJECTID": 44 }, "geometry": { "type": "Point", "coordinates": [ 11.6333, 44.833 ] } },
{ "type": "Feature", "properties": { "PLACE": "Florence", "LONGITUDE": 11.258552, "LATITUDE": 43.770765, "YEAR": 0, "TEXT": " ", "OBJECTID": 45 }, "geometry": { "type": "Point", "coordinates": [ 11.25855, 43.77077 ] } },
{ "type": "Feature", "properties": { "PLACE": "Foligno", "LONGITUDE": 12.7, "LATITUDE": 42.95, "YEAR": 0, "TEXT": " ", "OBJECTID": 46 }, "geometry": { "type": "Point", "coordinates": [ 12.7, 42.95 ] } },
{ "type": "Feature", "properties": { "PLACE": "Frankfurt", "LONGITUDE": 8.680584, "LATITUDE": 50.111527, "YEAR": 0, "TEXT": "c. 1240 - 16th C", "OBJECTID": 47 }, "geometry": { "type": "Point", "coordinates": [ 8.68058, 50.11153 ] } },
{ "type": "Feature", "properties": { "PLACE": "Geneva", "LONGITUDE": 6.139958, "LATITUDE": 46.203809, "YEAR": 0, "TEXT": "ended c. 1530", "OBJECTID": 48 }, "geometry": { "type": "Point", "coordinates": [ 6.13996, 46.20381 ] } },
{ "type": "Feature", "properties": { "PLACE": "Ghent", "LONGITUDE": 3.721695, "LATITUDE": 51.054009, "YEAR": 0, "TEXT": "11th C -", "OBJECTID": 49 }, "geometry": { "type": "Point", "coordinates": [ 3.7217, 51.05401 ] } },
{ "type": "Feature", "properties": { "PLACE": "Gonzaga", "LONGITUDE": 10.820067, "LATITUDE": 44.951152, "YEAR": 0, "TEXT": " ", "OBJECTID": 50 }, "geometry": { "type": "Point", "coordinates": [ 10.82007, 44.95115 ] } },
{ "type": "Feature", "properties": { "PLACE": "King's Lynn", "LONGITUDE": 0.405941, "LATITUDE": 52.763828, "YEAR": 0, "TEXT": "Fair founded 1101; this town was called \"Lynn\" until mid-16th century", "OBJECTID": 51 }, "geometry": { "type": "Point", "coordinates": [ 0.40594, 52.76383 ] } },
{ "type": "Feature", "properties": { "PLACE": "La Ferté-Gaucher", "LONGITUDE": 3.304724, "LATITUDE": 48.781746, "YEAR": 0, "TEXT": " ", "OBJECTID": 52 }, "geometry": { "type": "Point", "coordinates": [ 3.30472, 48.78175 ] } },
{ "type": "Feature", "properties": { "PLACE": "Lagny", "LONGITUDE": 2.701825, "LATITUDE": 48.878356, "YEAR": 0, "TEXT": "c. 1114-1789, part of the Champagne cycle of fairs", "OBJECTID": 53 }, "geometry": { "type": "Point", "coordinates": [ 2.70182, 48.87836 ] } },
{ "type": "Feature", "properties": { "PLACE": "Lanciano", "LONGITUDE": 14.391379, "LATITUDE": 42.233175, "YEAR": 0, "TEXT": " ", "OBJECTID": 54 }, "geometry": { "type": "Point", "coordinates": [ 14.39138, 42.23318 ] } },
{ "type": "Feature", "properties": { "PLACE": "Leipzig", "LONGITUDE": 12.385727, "LATITUDE": 51.343361, "YEAR": 0, "TEXT": "15th C", "OBJECTID": 55 }, "geometry": { "type": "Point", "coordinates": [ 12.38573, 51.34336 ] } },
{ "type": "Feature", "properties": { "PLACE": "Liancourt", "LONGITUDE": 2.464384, "LATITUDE": 49.329694, "YEAR": 0, "TEXT": " ", "OBJECTID": 56 }, "geometry": { "type": "Point", "coordinates": [ 2.46438, 49.32969 ] } },
{ "type": "Feature", "properties": { "PLACE": "Lille", "LONGITUDE": 3.063017, "LATITUDE": 50.637183, "YEAR": 0, "TEXT": "c. 1100 - 16th C", "OBJECTID": 57 }, "geometry": { "type": "Point", "coordinates": [ 3.06302, 50.63718 ] } },
{ "type": "Feature", "properties": { "PLACE": "Linz", "LONGITUDE": 14.286293, "LATITUDE": 48.306074, "YEAR": 1450, "TEXT": "15th C", "OBJECTID": 58 }, "geometry": { "type": "Point", "coordinates": [ 14.28629, 48.30607 ] } },
{ "type": "Feature", "properties": { "PLACE": "Lyon", "LONGITUDE": 3.91915, "LATITUDE": 47.66364, "YEAR": 0, "TEXT": "1420 - 16th C", "OBJECTID": 59 }, "geometry": { "type": "Point", "coordinates": [ 3.91915, 47.66364 ] } },
{ "type": "Feature", "properties": { "PLACE": "Malines (Mechelen)", "LONGITUDE": 4.478072, "LATITUDE": 51.028919, "YEAR": 0, "TEXT": "1409-", "OBJECTID": 60 }, "geometry": { "type": "Point", "coordinates": [ 4.47807, 51.02892 ] } },
{ "type": "Feature", "properties": { "PLACE": "Malmö", "LONGITUDE": 13.001147, "LATITUDE": 55.603252, "YEAR": 0, "TEXT": "13th C - c.1545, part of Scania Peninsula herring fairs", "OBJECTID": 61 }, "geometry": { "type": "Point", "coordinates": [ 13.00115, 55.60325 ] } },
{ "type": "Feature", "properties": { "PLACE": "Mantes", "LONGITUDE": 1.719364, "LATITUDE": 48.990356, "YEAR": 0, "TEXT": " ", "OBJECTID": 62 }, "geometry": { "type": "Point", "coordinates": [ 1.71936, 48.99036 ] } },
{ "type": "Feature", "properties": { "PLACE": "Medina de Rioseco", "LONGITUDE": -5.04281, "LATITUDE": 41.883185, "YEAR": 1450, "TEXT": "15th C", "OBJECTID": 63 }, "geometry": { "type": "Point", "coordinates": [ -5.04281, 41.88319 ] } },
{ "type": "Feature", "properties": { "PLACE": "Medina del Campo", "LONGITUDE": -4.921706, "LATITUDE": 41.308185, "YEAR": 1450, "TEXT": "15th C", "OBJECTID": 64 }, "geometry": { "type": "Point", "coordinates": [ -4.92171, 41.30818 ] } },
{ "type": "Feature", "properties": { "PLACE": "Melun", "LONGITUDE": 2.660293, "LATITUDE": 48.541457, "YEAR": 0, "TEXT": " ", "OBJECTID": 65 }, "geometry": { "type": "Point", "coordinates": [ 2.66029, 48.54146 ] } },
{ "type": "Feature", "properties": { "PLACE": "Merida", "LONGITUDE": -6.345634, "LATITUDE": 38.91623, "YEAR": 0, "TEXT": " ", "OBJECTID": 66 }, "geometry": { "type": "Point", "coordinates": [ -6.34563, 38.91623 ] } },
{ "type": "Feature", "properties": { "PLACE": "Méry-sur-Seine", "LONGITUDE": 3.890249, "LATITUDE": 48.508225, "YEAR": 0, "TEXT": " ", "OBJECTID": 67 }, "geometry": { "type": "Point", "coordinates": [ 3.89025, 48.50823 ] } },
{ "type": "Feature", "properties": { "PLACE": "Messines (Mesen)", "LONGITUDE": 2.898767, "LATITUDE": 50.76403, "YEAR": 0, "TEXT": "c. 1100 - 16th C", "OBJECTID": 68 }, "geometry": { "type": "Point", "coordinates": [ 2.89877, 50.76403 ] } },
{ "type": "Feature", "properties": { "PLACE": "Milan", "LONGITUDE": 9.188126, "LATITUDE": 45.46367, "YEAR": 0, "TEXT": " ", "OBJECTID": 69 }, "geometry": { "type": "Point", "coordinates": [ 9.18813, 45.46367 ] } },
{ "type": "Feature", "properties": { "PLACE": "Montlhéry", "LONGITUDE": 2.270938, "LATITUDE": 48.639708, "YEAR": 0, "TEXT": " ", "OBJECTID": 70 }, "geometry": { "type": "Point", "coordinates": [ 2.27094, 48.63971 ] } },
{ "type": "Feature", "properties": { "PLACE": "Montolieu", "LONGITUDE": 2.214196, "LATITUDE": 43.310909, "YEAR": 0, "TEXT": " ", "OBJECTID": 71 }, "geometry": { "type": "Point", "coordinates": [ 2.2142, 43.31091 ] } },
{ "type": "Feature", "properties": { "PLACE": "Montpellier", "LONGITUDE": 3.8772, "LATITUDE": 43.61194, "YEAR": 0, "TEXT": " ", "OBJECTID": 72 }, "geometry": { "type": "Point", "coordinates": [ 3.8772, 43.61194 ] } },
{ "type": "Feature", "properties": { "PLACE": "Morigny", "LONGITUDE": -1.058878, "LATITUDE": 48.882029, "YEAR": 0, "TEXT": " ", "OBJECTID": 73 }, "geometry": { "type": "Point", "coordinates": [ -1.05888, 48.88203 ] } },
{ "type": "Feature", "properties": { "PLACE": "Narbonne", "LONGITUDE": 3.932374, "LATITUDE": 43.567089, "YEAR": 0, "TEXT": " ", "OBJECTID": 74 }, "geometry": { "type": "Point", "coordinates": [ 3.93237, 43.56709 ] } },
{ "type": "Feature", "properties": { "PLACE": "Nevers", "LONGITUDE": 3.161842, "LATITUDE": 46.987187, "YEAR": 0, "TEXT": " ", "OBJECTID": 75 }, "geometry": { "type": "Point", "coordinates": [ 3.16184, 46.98719 ] } },
{ "type": "Feature", "properties": { "PLACE": "Nogent", "LONGITUDE": 5.342628, "LATITUDE": 48.025873, "YEAR": 0, "TEXT": " ", "OBJECTID": 76 }, "geometry": { "type": "Point", "coordinates": [ 5.34263, 48.02587 ] } },
{ "type": "Feature", "properties": { "PLACE": "Nördlingen", "LONGITUDE": 10.489575, "LATITUDE": 48.850831, "YEAR": 0, "TEXT": "c. 1219 - 15th C", "OBJECTID": 77 }, "geometry": { "type": "Point", "coordinates": [ 10.48958, 48.85083 ] } },
{ "type": "Feature", "properties": { "PLACE": "Northampton", "LONGITUDE": -0.89739, "LATITUDE": 52.236874, "YEAR": 0, "TEXT": "c. 1153 - c. 1700", "OBJECTID": 78 }, "geometry": { "type": "Point", "coordinates": [ -0.89739, 52.23687 ] } },
{ "type": "Feature", "properties": { "PLACE": "Orléans", "LONGITUDE": 1.905196, "LATITUDE": 47.904583, "YEAR": 0, "TEXT": " ", "OBJECTID": 79 }, "geometry": { "type": "Point", "coordinates": [ 1.9052, 47.90458 ] } },
{ "type": "Feature", "properties": { "PLACE": "Paris", "LONGITUDE": 2.442191, "LATITUDE": 48.836029, "YEAR": 0, "TEXT": " ", "OBJECTID": 80 }, "geometry": { "type": "Point", "coordinates": [ 2.44219, 48.83603 ] } },
{ "type": "Feature", "properties": { "PLACE": "Pavia", "LONGITUDE": 9.15, "LATITUDE": 45.2, "YEAR": 0, "TEXT": " ", "OBJECTID": 81 }, "geometry": { "type": "Point", "coordinates": [ 9.15, 45.2 ] } },
{ "type": "Feature", "properties": { "PLACE": "Piacenza", "LONGITUDE": 9.6833, "LATITUDE": 45.05, "YEAR": 0, "TEXT": " ", "OBJECTID": 82 }, "geometry": { "type": "Point", "coordinates": [ 9.6833, 45.05 ] } },
{ "type": "Feature", "properties": { "PLACE": "Poitiers", "LONGITUDE": 0.367583, "LATITUDE": 46.61258, "YEAR": 0, "TEXT": " ", "OBJECTID": 83 }, "geometry": { "type": "Point", "coordinates": [ 0.36758, 46.61258 ] } },
{ "type": "Feature", "properties": { "PLACE": "Provins", "LONGITUDE": 3.302425, "LATITUDE": 48.559207, "YEAR": 0, "TEXT": "c. 1114-1789, part of the Champagne cycle of fairs", "OBJECTID": 84 }, "geometry": { "type": "Point", "coordinates": [ 3.30242, 48.55921 ] } },
{ "type": "Feature", "properties": { "PLACE": "Puiseaux", "LONGITUDE": 2.470657, "LATITUDE": 48.204383, "YEAR": 0, "TEXT": " ", "OBJECTID": 85 }, "geometry": { "type": "Point", "coordinates": [ 2.47066, 48.20438 ] } },
{ "type": "Feature", "properties": { "PLACE": "Quimperlé", "LONGITUDE": -3.548359, "LATITUDE": 47.871358, "YEAR": 0, "TEXT": " ", "OBJECTID": 86 }, "geometry": { "type": "Point", "coordinates": [ -3.54836, 47.87136 ] } },
{ "type": "Feature", "properties": { "PLACE": "Ramerupt", "LONGITUDE": 4.293754, "LATITUDE": 48.51866, "YEAR": 0, "TEXT": " ", "OBJECTID": 87 }, "geometry": { "type": "Point", "coordinates": [ 4.29375, 48.51866 ] } },
{ "type": "Feature", "properties": { "PLACE": "Recanati", "LONGITUDE": 13.562287, "LATITUDE": 43.403409, "YEAR": 0, "TEXT": " ", "OBJECTID": 88 }, "geometry": { "type": "Point", "coordinates": [ 13.56229, 43.40341 ] } },
{ "type": "Feature", "properties": { "PLACE": "Rennes", "LONGITUDE": -1.680265, "LATITUDE": 48.111761, "YEAR": 0, "TEXT": " ", "OBJECTID": 89 }, "geometry": { "type": "Point", "coordinates": [ -1.68027, 48.11176 ] } },
{ "type": "Feature", "properties": { "PLACE": "Rheims", "LONGITUDE": 4.03309, "LATITUDE": 49.256602, "YEAR": 0, "TEXT": " ", "OBJECTID": 90 }, "geometry": { "type": "Point", "coordinates": [ 4.03309, 49.2566 ] } },
{ "type": "Feature", "properties": { "PLACE": "Rome", "LONGITUDE": 12.492419, "LATITUDE": 41.870803, "YEAR": 0, "TEXT": " ", "OBJECTID": 91 }, "geometry": { "type": "Point", "coordinates": [ 12.49242, 41.8708 ] } },
{ "type": "Feature", "properties": { "PLACE": "Rouen", "LONGITUDE": 1.098492, "LATITUDE": 49.442366, "YEAR": 1450, "TEXT": "15th C", "OBJECTID": 92 }, "geometry": { "type": "Point", "coordinates": [ 1.09849, 49.44237 ] } },
{ "type": "Feature", "properties": { "PLACE": "Sahagún", "LONGITUDE": -5.03044, "LATITUDE": 42.372026, "YEAR": 0, "TEXT": " ", "OBJECTID": 93 }, "geometry": { "type": "Point", "coordinates": [ -5.03044, 42.37203 ] } },
{ "type": "Feature", "properties": { "PLACE": "Saint-Denis", "LONGITUDE": 2.364883, "LATITUDE": 48.936065, "YEAR": 0, "TEXT": "11th C -", "OBJECTID": 94 }, "geometry": { "type": "Point", "coordinates": [ 2.36488, 48.93607 ] } },
{ "type": "Feature", "properties": { "PLACE": "Saint-Germain-des-Prés", "LONGITUDE": 2.337266, "LATITUDE": 48.849176, "YEAR": 1482, "TEXT": "c. 1482 (Paris)", "OBJECTID": 95 }, "geometry": { "type": "Point", "coordinates": [ 2.33727, 48.84918 ] } },
{ "type": "Feature", "properties": { "PLACE": "Saint-Malo", "LONGITUDE": -2.026089, "LATITUDE": 48.648178, "YEAR": 0, "TEXT": " ", "OBJECTID": 96 }, "geometry": { "type": "Point", "coordinates": [ -2.02609, 48.64818 ] } },
{ "type": "Feature", "properties": { "PLACE": "Saint-Omer", "LONGITUDE": 2.260721, "LATITUDE": 50.750058, "YEAR": 0, "TEXT": "11th C -", "OBJECTID": 97 }, "geometry": { "type": "Point", "coordinates": [ 2.26072, 50.75006 ] } },
{ "type": "Feature", "properties": { "PLACE": "Saint-Quentin", "LONGITUDE": 3.288217, "LATITUDE": 49.848178, "YEAR": 0, "TEXT": " ", "OBJECTID": 98 }, "geometry": { "type": "Point", "coordinates": [ 3.28822, 49.84818 ] } },
{ "type": "Feature", "properties": { "PLACE": "Salerno", "LONGITUDE": 14.765912, "LATITUDE": 40.677956, "YEAR": 0, "TEXT": " ", "OBJECTID": 99 }, "geometry": { "type": "Point", "coordinates": [ 14.76591, 40.67796 ] } },
{ "type": "Feature", "properties": { "PLACE": "Segovia", "LONGITUDE": -4.119209, "LATITUDE": 40.949427, "YEAR": 0, "TEXT": " ", "OBJECTID": 100 }, "geometry": { "type": "Point", "coordinates": [ -4.11921, 40.94943 ] } },
{ "type": "Feature", "properties": { "PLACE": "Senigallia", "LONGITUDE": 13.218024, "LATITUDE": 43.715014, "YEAR": 1500, "TEXT": "16th C", "OBJECTID": 101 }, "geometry": { "type": "Point", "coordinates": [ 13.21802, 43.71501 ] } },
{ "type": "Feature", "properties": { "PLACE": "Seville", "LONGITUDE": -5.996502, "LATITUDE": 37.383316, "YEAR": 0, "TEXT": " ", "OBJECTID": 102 }, "geometry": { "type": "Point", "coordinates": [ -5.9965, 37.38332 ] } },
{ "type": "Feature", "properties": { "PLACE": "Sézanne", "LONGITUDE": 3.72279, "LATITUDE": 48.723542, "YEAR": 0, "TEXT": " ", "OBJECTID": 103 }, "geometry": { "type": "Point", "coordinates": [ 3.72279, 48.72354 ] } },
{ "type": "Feature", "properties": { "PLACE": "Skänor", "LONGITUDE": 12.843477, "LATITUDE": 55.412552, "YEAR": 0, "TEXT": "c. 12th C - 1545, part of Scania Peninsula herring fairs", "OBJECTID": 104 }, "geometry": { "type": "Point", "coordinates": [ 12.84348, 55.41255 ] } },
{ "type": "Feature", "properties": { "PLACE": "St. Florentin", "LONGITUDE": 3.728904, "LATITUDE": 48.003098, "YEAR": 0, "TEXT": " ", "OBJECTID": 105 }, "geometry": { "type": "Point", "coordinates": [ 3.7289, 48.0031 ] } },
{ "type": "Feature", "properties": { "PLACE": "St. Ives", "LONGITUDE": -0.076397, "LATITUDE": 52.332513, "YEAR": 0, "TEXT": "1110 -", "OBJECTID": 106 }, "geometry": { "type": "Point", "coordinates": [ -0.0764, 52.33251 ] } },
{ "type": "Feature", "properties": { "PLACE": "Stamford", "LONGITUDE": -0.48007, "LATITUDE": 52.651324, "YEAR": 0, "TEXT": "1206 -", "OBJECTID": 107 }, "geometry": { "type": "Point", "coordinates": [ -0.48007, 52.65132 ] } },
{ "type": "Feature", "properties": { "PLACE": "Terni", "LONGITUDE": 12.646781, "LATITUDE": 42.560219, "YEAR": 0, "TEXT": " ", "OBJECTID": 108 }, "geometry": { "type": "Point", "coordinates": [ 12.64678, 42.56022 ] } },
{ "type": "Feature", "properties": { "PLACE": "Tonnerre", "LONGITUDE": 3.974669, "LATITUDE": 47.856492, "YEAR": 0, "TEXT": " ", "OBJECTID": 109 }, "geometry": { "type": "Point", "coordinates": [ 3.97467, 47.85649 ] } },
{ "type": "Feature", "properties": { "PLACE": "Torhout", "LONGITUDE": 3.100994, "LATITUDE": 51.065544, "YEAR": 0, "TEXT": "c. 1100 - 16th C", "OBJECTID": 110 }, "geometry": { "type": "Point", "coordinates": [ 3.10099, 51.06554 ] } },
{ "type": "Feature", "properties": { "PLACE": "Toulouse", "LONGITUDE": 1.447196, "LATITUDE": 43.627577, "YEAR": 0, "TEXT": " ", "OBJECTID": 111 }, "geometry": { "type": "Point", "coordinates": [ 1.4472, 43.62758 ] } },
{ "type": "Feature", "properties": { "PLACE": "Tours", "LONGITUDE": 0.688851, "LATITUDE": 47.390294, "YEAR": 1450, "TEXT": " ", "OBJECTID": 112 }, "geometry": { "type": "Point", "coordinates": [ 0.68885, 47.39029 ] } },
{ "type": "Feature", "properties": { "PLACE": "Tréguier", "LONGITUDE": -3.224447, "LATITUDE": 48.787757, "YEAR": 0, "TEXT": " ", "OBJECTID": 113 }, "geometry": { "type": "Point", "coordinates": [ -3.22445, 48.78776 ] } },
{ "type": "Feature", "properties": { "PLACE": "Troyes", "LONGITUDE": 4.074801, "LATITUDE": 48.297468, "YEAR": 0, "TEXT": "c. 1114-1789, part of the Champagne cycle of fairs", "OBJECTID": 114 }, "geometry": { "type": "Point", "coordinates": [ 4.0748, 48.29747 ] } },
{ "type": "Feature", "properties": { "PLACE": "Utrecht", "LONGITUDE": 5.122747, "LATITUDE": 52.091262, "YEAR": 0, "TEXT": "12th C -", "OBJECTID": 115 }, "geometry": { "type": "Point", "coordinates": [ 5.12275, 52.09126 ] } },
{ "type": "Feature", "properties": { "PLACE": "Valladolid", "LONGITUDE": -4.71181, "LATITUDE": 41.604034, "YEAR": 0, "TEXT": " ", "OBJECTID": 116 }, "geometry": { "type": "Point", "coordinates": [ -4.71181, 41.60403 ] } },
{ "type": "Feature", "properties": { "PLACE": "Venice", "LONGITUDE": 12.398297, "LATITUDE": 45.433967, "YEAR": 0, "TEXT": "c. 13th C - 17th C", "OBJECTID": 117 }, "geometry": { "type": "Point", "coordinates": [ 12.3983, 45.43397 ] } },
{ "type": "Feature", "properties": { "PLACE": "Vercelli", "LONGITUDE": 8.426393, "LATITUDE": 45.321061, "YEAR": 0, "TEXT": " ", "OBJECTID": 118 }, "geometry": { "type": "Point", "coordinates": [ 8.42639, 45.32106 ] } },
{ "type": "Feature", "properties": { "PLACE": "Villalón de Campos", "LONGITUDE": -5.033987, "LATITUDE": 42.099264, "YEAR": 1450, "TEXT": "15th C -", "OBJECTID": 119 }, "geometry": { "type": "Point", "coordinates": [ -5.03399, 42.09926 ] } },
{ "type": "Feature", "properties": { "PLACE": "Vitry-sur-Seine", "LONGITUDE": 2.389323, "LATITUDE": 48.789444, "YEAR": 0, "TEXT": " ", "OBJECTID": 120 }, "geometry": { "type": "Point", "coordinates": [ 2.38932, 48.78944 ] } },
{ "type": "Feature", "properties": { "PLACE": "Vlaardingen", "LONGITUDE": 4.341996, "LATITUDE": 51.909874, "YEAR": 0, "TEXT": "13th C -", "OBJECTID": 121 }, "geometry": { "type": "Point", "coordinates": [ 4.342, 51.90987 ] } },
{ "type": "Feature", "properties": { "PLACE": "Voorschoten", "LONGITUDE": 4.446411, "LATITUDE": 52.127039, "YEAR": 0, "TEXT": "13th C -", "OBJECTID": 122 }, "geometry": { "type": "Point", "coordinates": [ 4.44641, 52.12704 ] } },
{ "type": "Feature", "properties": { "PLACE": "Westminster", "LONGITUDE": 0.128285, "LATITUDE": 51.506602, "YEAR": 0, "TEXT": "12th C  - c.1527", "OBJECTID": 123 }, "geometry": { "type": "Point", "coordinates": [ 0.12829, 51.5066 ] } },
{ "type": "Feature", "properties": { "PLACE": "Winchester", "LONGITUDE": -1.316485, "LATITUDE": 51.062979, "YEAR": 0, "TEXT": "1096 -", "OBJECTID": 124 }, "geometry": { "type": "Point", "coordinates": [ -1.31649, 51.06298 ] } },
{ "type": "Feature", "properties": { "PLACE": "Ypres", "LONGITUDE": 2.884192, "LATITUDE": 50.851282, "YEAR": 0, "TEXT": "c. 1100  - 16th C", "OBJECTID": 125 }, "geometry": { "type": "Point", "coordinates": [ 2.88419, 50.85128 ] } },
{ "type": "Feature", "properties": { "PLACE": "Zurzach", "LONGITUDE": 8.293239, "LATITUDE": 47.587729, "YEAR": 0, "TEXT": "c. 14th C - 1550", "OBJECTID": 126 }, "geometry": { "type": "Point", "coordinates": [ 8.29324, 47.58773 ] } }
]
}
